City,Country,Latitude,Longitude,Date,Cloudiness (%),Humidity (%),Max Temperature (°C),Wind Speed (m/s)
Hobart,AU,-42.8794,147.3294,1622657628,90,76,12.37,0.45
Saint-Philippe,RE,-21.3585,55.7679,1622657628,91,82,23.77,6.36
Gejiu,CN,23.306,103.1635,1622657629,83,87,15.81,1.11
Acapulco de Juárez,MX,16.8634,-99.8901,1622657629,75,58,31.9,3.13
Yurgamysh,RU,55.3714,64.4656,1622657629,97,53,14.33,2.39
Lüderitz,NA,-26.6481,15.1594,1622657409,0,32,19.87,5.49
Mataura,NZ,-46.1927,168.8643,1622657630,18,97,9.71,1.44
Bluff,NZ,-46.6,168.3333,1622657630,71,81,9.89,4.65
Staryy Nadym,RU,65.6118,72.6842,1622657630,95,60,4.29,4.04
Punta Arenas,CL,-53.15,-70.9167,1622657631,0,69,2.01,3.18
Vaini,TO,-21.2,-175.2,1622657631,20,94,19.09,1.03
Kumul,CN,42.8,93.45,1622657631,0,10,25.2,4.82
Tuttlingen,DE,47.9833,8.8167,1622657632,92,82,21.46,1.51
Nome,US,64.5011,-165.4064,1622657632,90,52,5.65,3.6
Albany,US,42.6001,-73.9662,1622657632,100,52,26.22,3.26
Egvekinot,RU,66.3167,-179.1667,1622657633,24,70,-2.79,0.97
Tasiilaq,GL,65.6145,-37.6368,1622657633,22,80,5.09,3.04
Norman Wells,CA,65.282,-126.8329,1622657633,75,71,8.02,4.12
Kapaa,US,22.0752,-159.319,1622657634,40,76,26.99,0.89
Kloulklubed,PW,7.0419,134.2556,1622657634,94,77,28.15,1.51
Rikitea,PF,-23.1203,-134.9692,1622657634,98,60,22.15,7.73
Gizo Government Station,SB,-8.103,156.8419,1622657635,78,77,27.47,0.43
Dikson,RU,73.5069,80.5464,1622657635,96,89,-3.59,2.67
Vanimo,PG,-2.6741,141.3028,1622657635,88,86,24.42,1.37
Touros,BR,-5.1989,-35.4608,1622657636,1,62,30.5,7.12
Bambous Virieux,MU,-20.3428,57.7575,1622657636,40,69,24.56,8.16
Baruun-Urt,MN,46.6806,113.2792,1622657636,41,48,7.49,4.48
Ponta do Sol,PT,32.6667,-17.1,1622657637,97,53,20.07,4.24
Diré,ML,12.2833,-10.9667,1622657637,79,36,33.76,3.43
Port Alfred,ZA,-33.5906,26.891,1622657637,96,78,15.9,6.88
Upernavik,GL,72.7868,-56.1549,1622657639,52,81,-0.03,3.25
Kavieng,PG,-2.5744,150.7967,1622657639,97,82,27.19,4.13
Quelimane,MZ,-17.8786,36.8883,1622657639,62,87,22.13,2.66
Mahébourg,MU,-20.4081,57.7,1622657640,40,69,24.58,5.66
Seidu,SL,9.0167,-10.6,1622657640,90,64,28.62,0.23
Goderich,CA,43.7501,-81.7165,1622657641,72,33,24.0,2.57
Ust'-Kut,RU,56.7938,105.7672,1622657641,58,54,12.94,0.63
Ushuaia,AR,-54.8,-68.3,1622657641,67,86,1.79,1.3
Katsuura,JP,35.1333,140.3,1622657642,93,83,21.17,3.72
Barrow,US,71.2906,-156.7887,1622657642,90,74,-1.99,7.72
Comodoro Rivadavia,AR,-45.8667,-67.5,1622657644,0,62,9.92,4.63
Korla,CN,41.7597,86.1469,1622657612,22,20,27.19,2.93
Padang,ID,-0.9492,100.3543,1622657508,80,87,25.92,1.88
Madimba,TZ,-10.4,40.3333,1622657645,48,84,23.42,3.48
Lompoc,US,34.6391,-120.4579,1622657645,40,80,28.34,1.34
Pevek,RU,69.7008,170.3133,1622657646,12,74,-0.15,1.32
Busselton,AU,-33.65,115.3333,1622657646,96,69,15.67,0.96
Fort Nelson,CA,58.8053,-122.7002,1622657646,75,38,23.77,2.57
East London,ZA,-33.0153,27.9116,1622657647,0,82,16.52,6.69
Tsimmerbude,RU,54.675,20.1347,1622657648,38,73,16.03,3.8
Tazovsky,RU,67.4667,78.7,1622657658,100,65,2.67,2.3
Saint-Joseph,RE,-21.3667,55.6167,1622657658,95,79,23.21,6.44
San Cosme y Damián,PY,-27.3167,-56.35,1622657659,96,69,25.83,0.96
Castro,BR,-24.7911,-50.0119,1622657659,10,63,21.22,3.91
Lloydminster,CA,53.2835,-110.0016,1622657659,75,36,27.12,5.14
Isangel,VU,-19.55,169.2667,1622657660,14,67,20.38,3.5
Ilulissat,GL,69.2167,-51.1,1622657660,1,56,6.01,3.6
São João da Barra,BR,-21.6403,-41.0511,1622657660,1,75,29.05,4.47
Kinango,KE,-4.1372,39.3153,1622657662,45,95,25.06,2.03
Poum,NC,-20.2333,164.0167,1622657663,87,67,22.23,5.87
San Policarpo,PH,12.1791,125.5072,1622657663,83,85,25.74,2.51
Nikolskoye,RU,59.7035,30.7861,1622657663,15,65,17.94,2.8
Cape Town,ZA,-33.9258,18.4232,1622657664,0,81,16.23,2.24
Saint George,US,37.1041,-113.5841,1622657664,1,13,36.97,0.89
Nanortalik,GL,60.1432,-45.2371,1622657665,100,83,4.43,4.95
Torbay,CA,47.6666,-52.7314,1622657665,20,50,22.71,11.32
Saskylakh,RU,71.9167,114.0833,1622657665,100,87,1.61,8.41
Hermanus,ZA,-34.4187,19.2345,1622657665,95,82,17.17,5.87
Thompson,CA,55.7435,-97.8558,1622657666,75,34,27.09,6.69
Sangar,RU,63.9242,127.4739,1622657666,70,76,9.52,1.97
Matara,LK,5.9485,80.5353,1622657647,87,85,26.49,5.22
Omboué,GA,-1.5746,9.2618,1622657667,53,84,24.78,2.54
Mareeba,AU,-17.0,145.4333,1622657667,85,94,17.4,0.63
New Norfolk,AU,-42.7826,147.0587,1622657668,99,77,12.18,1.23
Greenville,US,35.6127,-77.3663,1622657669,90,88,25.72,6.17
Khatanga,RU,71.9667,102.5,1622657669,100,84,0.83,1.67
Tuni,IN,17.35,82.55,1622657669,62,72,28.7,0.44
Aklavik,CA,68.2191,-135.0107,1622657670,90,86,1.46,2.57
George Town,MY,5.4112,100.3354,1622657457,20,85,28.27,1.26
Tilichiki,RU,60.4667,166.1,1622657671,9,71,5.08,0.48
Port Elizabeth,ZA,-33.918,25.5701,1622657671,20,77,16.16,7.72
Vao,NC,-22.6667,167.4833,1622657672,84,64,20.72,3.82
Jamestown,US,42.097,-79.2353,1622657673,75,49,21.77,4.63
Provideniya,RU,64.3833,-173.3,1622657673,22,57,1.04,2.37
Butaritari,KI,3.0707,172.7902,1622657674,100,79,28.14,6.97
Lewiston,US,44.1003,-70.2148,1622657675,1,39,28.36,5.66
Dongsheng,CN,39.8161,109.9776,1622657675,35,45,8.18,8.13
Ballina,AU,-28.8667,153.5667,1622657676,86,97,13.77,2.08
Neyshabur,IR,36.2133,58.7958,1622657676,0,18,30.32,2.93
Chermoz,RU,58.787,56.1489,1622657676,0,63,8.62,3.3
Sitka,US,57.0531,-135.33,1622657677,90,87,9.94,4.63
Vardø,NO,70.3705,31.1107,1622657677,0,51,19.11,3.09
Marystown,CA,47.1666,-55.1483,1622657677,15,72,13.42,7.19
Qaanaaq,GL,77.484,-69.3632,1622657678,47,78,-2.42,0.86
Kruisfontein,ZA,-34.0033,24.7314,1622657678,81,74,14.38,7.89
Bambanglipuro,ID,-7.95,110.2833,1622657678,55,91,17.0,1.53
Vestmannaeyjar,IS,63.4427,-20.2734,1622657680,0,71,9.55,2.57
Salekhard,RU,66.53,66.6019,1622657680,98,73,2.97,5.96
Paramonga,PE,-10.6667,-77.8333,1622657690,97,70,21.03,3.47
Marshalltown,US,42.0494,-92.908,1622657691,75,38,26.93,2.57
St. Marys,US,30.7305,-81.5465,1622657691,1,70,30.13,4.47
Hilo,US,19.7297,-155.09,1622657692,90,77,24.89,3.6
Natal,BR,-5.795,-35.2094,1622657692,40,51,30.36,6.08
Cherskiy,RU,68.75,161.3,1622657693,40,41,9.93,3.2
Atuona,PF,-9.8,-139.0333,1622657693,45,72,26.4,6.94
Denpasar,ID,-8.65,115.2167,1622657693,20,94,26.81,2.34
Henties Bay,NA,-22.116,14.2845,1622657694,0,55,17.7,4.42
Cidreira,BR,-30.1811,-50.2056,1622657694,70,63,20.57,4.95
Puerto Ayora,EC,-0.7393,-90.3518,1622657694,66,77,26.98,3.58
Dhidhdhoo,MV,6.8833,73.1,1622657695,54,76,28.47,8.15
Victor Harbor,AU,-35.5667,138.6167,1622657695,2,88,14.15,0.45
García,MX,25.8167,-100.5833,1622657695,86,68,31.65,2.55
Hambantota,LK,6.1241,81.1185,1622657696,83,83,26.7,7.06
San Miguel de Cozumel,MX,20.5083,-86.9458,1622657696,75,79,30.99,2.68
Orsha,BY,54.5153,30.4053,1622657696,38,71,14.02,2.93
Altay,CN,47.8667,88.1167,1622657630,88,41,20.27,1.85
Qaqortoq,GL,60.7167,-46.0333,1622657697,100,78,11.28,7.95
Ayní,TJ,39.3941,68.5377,1622657697,55,58,20.39,1.56
Jalu,LY,29.0331,21.5482,1622657698,16,22,31.82,4.85
Kiama,AU,-34.6833,150.8667,1622657698,98,84,12.54,1.85
Pisco,PE,-13.7,-76.2167,1622657698,90,88,18.03,2.06
Husavik,IS,66.0449,-17.3389,1622657699,98,74,12.95,2.43
Wajid,SO,3.8093,43.2471,1622657699,91,40,28.18,5.25
Saint Paul Harbor,US,57.79,-152.4072,1622657699,90,87,8.73,2.57
Kununurra,AU,-15.7667,128.7333,1622657700,99,83,21.99,1.54
Tuatapere,NZ,-46.1333,167.6833,1622657443,30,89,9.9,2.35
Asahikawa,JP,43.7678,142.3703,1622657700,100,90,11.06,1.11
Chokurdakh,RU,70.6333,147.9167,1622657701,64,28,16.04,2.07
Santa Maria,BR,-29.6842,-53.8069,1622657701,100,62,20.07,3.59
Cogoleto,IT,44.3893,8.6429,1622657701,0,80,23.63,0.61
Muisne,EC,0.6,-80.0333,1622657702,96,81,29.06,4.29
Fairbanks,US,64.8378,-147.7164,1622657402,90,68,15.19,0.0
Mel'nikovo,RU,56.5558,84.085,1622657702,84,60,12.87,2.54
Funtua,NG,11.5233,7.3081,1622657702,85,29,30.44,2.41
Nicoya,CR,10.1483,-85.452,1622657703,33,42,33.75,3.06
Busia,UG,0.4544,34.0758,1622657703,92,80,19.57,1.93
Rozhyshche,UA,50.9154,25.2691,1622657704,100,55,15.63,3.33
Quimper,FR,48.0,-4.1,1622657704,90,88,17.46,3.6
Port Augusta,AU,-32.5,137.7667,1622657704,64,80,12.08,2.4
Hirara,JP,24.8,125.2833,1622657629,99,89,27.5,5.88
Longyearbyen,SJ,78.2186,15.6401,1622657705,75,65,6.91,12.35
Okhotsk,RU,59.3833,143.3,1622657705,89,87,2.83,3.02
Ashington,GB,50.9331,-0.3909,1622657706,92,56,24.5,2.68
Sola,VU,-13.8833,167.55,1622657706,94,80,26.26,10.79
Te Anau,NZ,-45.4167,167.7167,1622657706,30,91,6.49,0.52
Kalevala,RU,65.2,31.1667,1622657706,97,48,18.37,1.42
Mar del Plata,AR,-38.0023,-57.5575,1622657707,40,58,13.33,0.89
Fuling,CN,29.7022,107.3919,1622657707,88,91,21.69,0.43
Esperance,AU,-33.8667,121.9,1622657708,56,78,14.85,3.57
Zolotyy Potik,UA,48.9095,25.3393,1622657708,98,85,15.51,1.25
Havøysund,NO,70.9963,24.6622,1622657708,1,74,18.49,4.9
Conceição da Barra,BR,-18.5933,-39.7322,1622657709,65,64,26.56,3.06
Ribeira Grande,PT,38.5167,-28.7,1622657719,20,48,19.22,4.63
Matadi,CD,-5.8167,13.45,1622657720,5,67,26.18,1.12
Dingle,PH,10.9995,122.6711,1622657720,100,92,24.91,2.78
Rundu,NA,-17.9333,19.7667,1622657721,10,29,14.87,3.15
Killybegs,IE,54.6333,-8.45,1622657721,100,86,16.84,1.93
San Angelo,US,31.4638,-100.437,1622657721,20,56,30.35,0.45
Mossendjo,CG,-2.9506,12.7261,1622657722,23,83,22.49,0.3
San Juan del Sur,NI,11.2529,-85.8705,1622657723,40,62,31.12,7.24
São Filipe,CV,14.8961,-24.4956,1622657723,70,75,23.91,5.48
Kainantu,PG,-6.2887,145.8655,1622657724,99,96,15.87,1.01
Uyuni,BO,-20.4597,-66.825,1622657724,33,10,11.33,2.06
Itarema,BR,-2.9248,-39.9167,1622657724,34,69,28.83,6.37
Bredasdorp,ZA,-34.5322,20.0403,1622657724,95,88,13.62,4.33
Kirakira,SB,-10.4544,161.9205,1622657726,35,89,25.99,3.92
Tura,IN,25.5198,90.2201,1622657726,30,95,23.56,3.01
Tiksi,RU,71.6872,128.8694,1622657726,86,76,8.39,5.56
Hamilton,US,39.1834,-84.5333,1622657727,90,95,19.56,0.89
Bull Savanna,JM,17.8868,-77.5902,1622657728,15,63,28.91,7.5
Tuktoyaktuk,CA,69.4541,-133.0374,1622657728,75,69,1.0,5.66
Lázaro Cárdenas,MX,17.9583,-102.2,1622657729,97,51,32.57,3.32
Zhigansk,RU,66.7697,123.3711,1622657729,85,77,13.03,5.79
Wanning,CN,18.8003,110.3967,1622657729,97,94,27.74,3.93
Sistranda,NO,63.7256,8.834,1622657730,69,75,15.98,5.04
Tocopilla,CL,-22.092,-70.1979,1622657730,69,68,20.56,2.89
Pergamino,AR,-33.89,-60.5736,1622657730,36,53,21.25,1.34
Bathsheba,BB,13.2167,-59.5167,1622657731,40,54,30.34,6.11
Alofi,NU,-19.0595,-169.9187,1622657731,100,100,21.94,2.06
Saint-Pierre,RE,-21.3393,55.4781,1622657731,0,79,23.82,11.32
Forsytheganj,BY,52.6333,29.7333,1622657732,77,77,12.79,4.18
Avera,US,33.194,-82.5271,1622657732,100,36,28.73,2.84
Port Moresby,PG,-9.4431,147.1797,1622657544,96,88,23.44,2.29
Santa Cruz de la Sierra,BO,-17.8,-63.1667,1622657733,75,54,30.03,8.23
Gbarnga,LR,6.9956,-9.4722,1622657734,100,81,26.1,2.77
Barra do Garças,BR,-15.89,-52.2567,1622657735,20,43,33.32,2.33
Alice Springs,AU,-23.7,133.8833,1622657736,49,66,9.75,2.97
Los Llanos de Aridane,ES,28.6585,-17.9182,1622657736,75,86,19.86,3.93
Leningradskiy,RU,69.3833,178.4167,1622657736,59,94,-3.31,4.36
Kaitangata,NZ,-46.2817,169.8464,1622657737,13,91,5.65,2.95
Maniitsoq,GL,65.4167,-52.9,1622657737,100,79,3.16,2.39
Yar-Sale,RU,66.8333,70.8333,1622657737,97,75,3.37,4.23
Srednekolymsk,RU,67.45,153.6833,1622657737,84,36,14.74,1.77
Birao,CF,10.2849,22.7882,1622657738,90,58,26.84,2.47
Puerto Ayacucho,VE,5.6639,-67.6236,1622657738,100,80,26.36,1.55
Pangody,RU,65.85,74.4859,1622657738,82,64,2.9,3.3
Mount Gambier,AU,-37.8333,140.7667,1622657739,90,93,8.95,0.0
Leshukonskoye,RU,64.8989,45.7622,1622657739,100,78,6.95,4.13
Lebu,CL,-37.6167,-73.65,1622657739,56,77,14.0,2.24
Airai,TL,-8.9266,125.4092,1622657740,94,89,13.62,1.08
Baker City,US,44.7749,-117.8344,1622657740,1,39,28.85,0.0
Cayenne,GF,4.9333,-52.3333,1622657750,75,80,29.49,0.89
Santa Fe,AR,-31.6333,-60.7,1622657751,90,36,25.0,0.89
Lucknow,IN,26.85,80.9167,1622657709,0,70,28.99,2.3
Lorengau,PG,-2.0226,147.2712,1622657751,95,87,26.34,2.03
Nadvoitsy,RU,63.8667,34.3167,1622657752,92,61,15.09,0.88
Walvis Bay,NA,-22.9575,14.5053,1622657678,0,42,20.53,6.86
Clyde River,CA,70.4692,-68.5914,1622657754,90,93,-2.87,2.57
Alenquer,BR,-1.9417,-54.7383,1622657754,31,66,31.19,1.05
Banugao,PH,14.7333,121.6333,1622657755,100,87,27.75,6.11
Las Matas de Farfán,DO,18.8731,-71.5166,1622657756,76,50,30.42,2.33
Warwick,US,41.7001,-71.4162,1622657756,75,61,29.37,5.14
Maceió,BR,-9.6658,-35.7353,1622657756,40,69,28.69,4.51
Pacifica,US,37.6138,-122.4869,1622657757,20,77,24.21,1.34
Ambanja,MG,-13.6833,48.45,1622657757,37,83,22.29,1.33
Hithadhoo,MV,-0.6,73.0833,1622657703,71,68,28.79,7.71
Port Macquarie,AU,-31.4333,152.9167,1622657758,55,81,11.32,2.82
Talcahuano,CL,-36.7167,-73.1167,1622657758,90,88,14.82,3.09
Chui,UY,-33.6971,-53.4616,1622657758,24,55,17.83,5.8
Chiang Khong,TH,20.2613,100.4046,1622657759,84,70,27.18,0.4
Vostok,RU,46.4856,135.8833,1622657759,100,67,9.98,2.18
Waddān,LY,29.1614,16.139,1622657759,100,14,36.84,6.2
Troitsko-Pechorsk,RU,62.7084,56.1964,1622657760,89,72,8.49,4.72
Murmashi,RU,68.8154,32.8115,1622657760,0,31,23.23,2.0
Iqaluit,CA,63.7506,-68.5145,1622657761,90,93,0.85,5.36
Bandarbeyla,SO,9.4942,50.8122,1622657761,97,72,27.99,9.64
Yellowknife,CA,62.456,-114.3525,1622657764,40,77,15.74,0.45
Port Hedland,AU,-20.3167,118.5667,1622657764,94,37,21.03,4.63
Vila Velha,BR,-20.3297,-40.2925,1622657765,0,72,27.76,2.68
Mutoko,ZW,-17.397,32.2268,1622657765,83,66,17.38,0.4
Ende,ID,-8.8432,121.6623,1622657765,55,89,25.11,1.0
Petropavlovsk-Kamchatskiy,RU,53.0452,158.6483,1622657611,44,93,-0.67,2.11
Usoke,TZ,-5.1667,32.35,1622657766,80,54,20.88,1.38
Yerbogachën,RU,61.2767,108.0108,1622657766,1,54,14.14,1.49
Rome,US,43.2128,-75.4557,1622657531,75,67,24.1,2.57
Cabo San Lucas,MX,22.8909,-109.9124,1622657767,40,40,33.61,5.14
Departamento de Maldonado,UY,-34.6667,-54.9167,1622657490,42,64,13.66,6.96
Vila,PT,42.0304,-8.1588,1622657769,100,86,15.97,1.67
Wiwilí,NI,13.6268,-85.8254,1622657769,27,31,32.41,4.2
Uzunovo,RU,54.5386,38.6173,1622657769,38,86,10.26,3.96
Thinadhoo,MV,0.5333,72.9333,1622657769,92,73,28.56,6.72
Te Karaka,NZ,-38.4654,177.8679,1622657770,59,92,5.27,0.95
Guerrero Negro,MX,27.9769,-114.0611,1622657770,6,53,21.92,4.76
Geraldton,AU,-28.7667,114.6,1622657770,0,87,11.74,4.39
San Patricio,US,28.017,-97.5169,1622657771,99,57,31.62,3.02
Bismarck,US,46.8083,-100.7837,1622657771,1,32,28.91,2.57
Arraial do Cabo,BR,-22.9661,-42.0278,1622657771,0,73,26.98,4.63
Rawson,AR,-43.3002,-65.1023,1622657772,67,53,9.4,5.01
Kiryat Gat,IL,31.61,34.7642,1622657772,0,14,23.23,4.1
Minas,UY,-34.3759,-55.2377,1622657782,65,64,13.26,6.91
Chapais,CA,49.7834,-74.8492,1622657783,99,47,17.88,2.99
Narsaq,GL,60.9167,-46.05,1622657783,100,66,11.12,6.11
Dzhebariki-Khaya,RU,62.2167,135.8,1622657783,48,92,8.39,1.62
Palmerston North,NZ,-40.35,175.6167,1622657723,2,96,6.31,0.9
Solana Beach,US,32.9912,-117.2711,1622657784,90,81,31.8,1.34
Jonava,LT,55.0833,24.2833,1622657784,0,42,19.03,2.68
Xai-Xai,MZ,-25.0519,33.6442,1622657785,67,89,18.45,1.68
Cheney,US,47.4874,-117.5758,1622657785,1,31,31.18,2.48
Bereket,TM,39.2446,55.5154,1622657786,0,11,35.91,3.75
Moussoro,TD,13.6408,16.4901,1622657786,81,21,36.19,2.79
Coyhaique,CL,-45.5752,-72.0662,1622657786,90,87,6.34,2.57
North Bend,US,43.4065,-124.2243,1622657787,20,80,27.19,3.6
Nuuk,GL,64.1835,-51.7216,1622657787,75,70,6.34,7.2
Zhangye,CN,38.9342,100.4517,1622657402,100,16,15.3,1.01
Poso,ID,-1.3959,120.7524,1622657788,70,74,27.41,2.22
Moncton,CA,46.1159,-64.8019,1622657788,75,41,24.27,7.2
Kitzbühel,AT,47.4464,12.3922,1622657788,81,94,21.88,2.22
Constitución,CL,-35.3333,-72.4167,1622657789,55,70,17.1,4.79
Pantai Remis,MY,4.4557,100.6288,1622657493,85,86,26.39,1.16
Bilibino,RU,68.0546,166.4372,1622657789,19,50,12.22,1.73
Kavaratti,IN,10.5669,72.642,1622657790,24,76,28.65,7.29
Cabedelo,BR,-6.9811,-34.8339,1622657790,14,68,28.37,5.97
Port Blair,IN,11.6667,92.75,1622657790,43,75,28.64,1.65
Mulchén,CL,-37.7167,-72.2333,1622657791,73,71,14.92,0.99
Kantunilkín,MX,21.0917,-87.45,1622657791,27,50,30.91,1.98
Severo-Kuril'sk,RU,50.6789,156.125,1622657791,25,90,4.36,3.69
Hokitika,NZ,-42.7167,170.9667,1622657792,97,79,10.45,1.62
Guanambi,BR,-14.2233,-42.7814,1622657792,3,25,32.72,3.33
Atar,MR,20.5169,-13.0499,1622657792,40,23,42.03,5.14
Port Keats,AU,-14.25,129.55,1622657793,47,72,23.62,0.96
Baft,IR,29.234,56.6057,1622657793,96,12,28.34,5.63
Berlevåg,NO,70.8578,29.0864,1622657793,0,42,17.97,4.63
Carnarvon,AU,-24.8667,113.6333,1622657794,73,77,14.04,4.63
Nabire,ID,-3.3667,135.4833,1622657338,74,92,23.97,1.6
Hong Kong,HK,22.2855,114.1577,1622657520,86,90,29.62,1.34
Vila Franca do Campo,PT,37.7167,-25.4333,1622657795,73,57,18.23,4.44
San Ramon,US,37.7799,-121.978,1622657647,1,65,24.63,0.45
Aarhus,DK,56.1567,10.2108,1622657795,6,75,16.88,4.84
Dayong,CN,25.0209,118.2898,1622657796,100,94,25.82,1.14
Mabaruma,GY,8.2,-59.7833,1622657796,76,67,28.87,2.95
Bubaque,GW,11.2833,-15.8333,1622657796,71,77,26.51,6.75
Codrington,AU,-38.2667,141.9667,1622657797,61,85,9.12,3.54
Iralaya,HN,15.0,-83.2333,1622657797,21,69,32.05,4.19
Los Alamos,US,35.8881,-106.307,1622657797,40,44,23.29,0.45
Iaciara,BR,-14.0958,-46.6317,1622657798,0,22,33.74,0.95
São José da Coroa Grande,BR,-8.8978,-35.1478,1622657798,44,64,27.2,4.01
Lismore,AU,-28.8135,153.2773,1622657615,83,95,13.73,2.06
Bowen,AU,-20.0167,148.2333,1622657799,96,87,16.12,2.94
Krasnosel'kup,RU,65.7,82.4667,1622657799,100,61,4.17,3.72
Bilma,NE,18.6853,12.9164,1622657800,2,8,36.93,2.32
Nichinan,JP,31.6,131.3667,1622657800,100,84,20.67,1.97
Shingū,JP,33.7333,135.9833,1622657526,99,93,17.73,2.74
Murgab,TM,37.4966,61.9714,1622657811,0,33,32.93,3.73
Ulaanbaatar,MN,47.9077,106.8832,1622657598,0,93,4.07,1.48
Stykkisholmur,IS,65.0757,-22.7297,1622657811,62,73,8.16,3.47
Hasaki,JP,35.7333,140.8333,1622657621,100,80,17.94,4.62
Brownsville,US,25.9018,-97.4975,1622657813,75,72,31.05,1.79
Jutaí,BR,-5.1833,-68.9,1622657813,57,51,32.19,1.16
Orán,AR,-23.1322,-64.326,1622657813,0,37,28.01,2.25
Bollnäs,SE,61.3482,16.3946,1622657814,22,51,16.88,3.11
Hervey Bay,AU,-25.2986,152.8535,1622657814,7,76,19.46,2.09
Inuvik,CA,68.3499,-133.7218,1622657814,90,90,1.48,3.09
Naze,JP,28.3667,129.4833,1622657795,100,88,22.89,5.3
Ust'-Omchug,RU,61.15,149.6333,1622657816,24,89,2.15,1.57
Tefé,BR,-3.3542,-64.7114,1622657816,40,79,30.06,2.57
Dărmăneşti,RO,46.3667,26.4833,1622657816,100,81,12.48,3.15
Kamenka,RU,51.3223,42.7678,1622657817,100,69,15.18,8.58
Maragogi,BR,-9.0122,-35.2225,1622657817,46,66,26.99,3.87
Olafsvik,IS,64.8945,-23.7142,1622657817,47,76,7.53,4.99
Tommot,RU,58.9564,126.2925,1622657818,43,93,7.77,0.76
Am Timan,TD,11.0297,20.2827,1622657819,96,45,30.56,5.63
Tayturka,RU,52.8692,103.4608,1622657819,5,75,11.08,1.39
Øksfjord,NO,70.2396,22.3479,1622657820,4,50,19.04,1.64
Kirensk,RU,57.7853,108.1119,1622657821,88,54,13.75,0.34
Victoria Point,AU,-27.5833,153.3,1622657822,82,93,16.62,1.69
West Helena,US,34.5507,-90.6418,1622657822,69,58,26.82,5.97
Olinda,BR,-8.0089,-34.8553,1622657790,40,65,26.85,4.76
São Miguel do Araguaia,BR,-13.275,-50.1628,1622657823,1,23,34.19,2.12
General Pico,AR,-35.6566,-63.7568,1622657823,20,41,14.62,0.57
Maltahöhe,NA,-24.8333,16.9833,1622657823,0,27,10.48,5.06
Pangkalanbuun,ID,-2.6833,111.6167,1622657824,25,96,23.7,1.26
Sambava,MG,-14.2667,50.1667,1622657794,74,87,23.29,5.25
Vrangel',RU,42.7297,133.0839,1622657824,93,92,12.04,3.34
Sayyan,YE,15.1718,44.3244,1622657825,69,20,20.36,7.16
Zhob,PK,31.3411,69.4481,1622657825,3,38,27.95,1.87
Aquiraz,BR,-3.9014,-38.3911,1622657791,27,56,31.23,4.28
Marawi,PH,7.9986,124.2928,1622657826,100,85,19.8,2.37
Napoleon,US,41.3923,-84.1252,1622657826,100,91,18.31,3.37
Astoria,US,46.1879,-123.8313,1622657735,1,75,26.16,3.09
Beringovskiy,RU,63.05,179.3167,1622657827,23,81,-0.55,3.29
Bethel,US,41.3712,-73.414,1622657573,20,55,27.12,4.12
Marquette,US,46.5333,-87.6335,1622657828,95,59,25.43,3.98
Magway,MM,20.15,94.9167,1622657828,10,64,29.59,3.84
Bosobolo,CD,4.1833,19.9,1622657828,82,85,21.63,0.86
Baiyin,CN,36.5583,104.2081,1622657536,100,15,11.49,3.52
Aykhal,RU,66.0,111.5,1622657808,91,63,14.01,2.62
Bahía Blanca,AR,-38.7196,-62.2724,1622657807,33,45,12.29,4.17
Mamu Kanjan,PK,30.8333,72.8,1622657830,0,41,30.97,3.72
Camaná,PE,-16.6228,-72.7111,1622657830,52,77,19.73,2.92
Pemangkat,ID,1.1667,108.9667,1622657794,98,83,27.02,0.7
Ingham,US,42.6,-84.3833,1622657831,75,58,24.57,6.69
Pacific Grove,US,36.6177,-121.9166,1622657807,75,86,24.53,1.34
Khandyga,RU,62.6667,135.6,1622657841,43,91,8.68,0.89
Nago,JP,26.5881,127.9761,1622657626,100,96,26.24,2.54
Minbu,MM,20.1833,94.8833,1622657842,10,64,29.68,4.0
Shitanjing,CN,39.2342,106.3439,1622657796,71,40,12.05,4.24
Stephenville,US,32.2207,-98.2023,1622657843,1,65,25.43,2.57
Cedral,MX,23.8,-100.7333,1622657845,96,44,23.18,3.8
Tshane,BW,-24.0196,21.8684,1622657845,0,31,10.72,4.2
Pangnirtung,CA,66.1451,-65.7125,1622657845,90,93,1.0,4.63
San Cristobal,VE,7.7669,-72.225,1622657846,100,52,28.1,2.56
Novy Urengoy,RU,66.0833,76.6333,1622657847,90,56,3.63,3.38
Seoul,KR,37.5683,126.9778,1622657502,0,88,18.73,0.44
Lixouri,GR,38.2019,20.4314,1622657847,20,88,19.92,4.16
Southbridge,US,42.0751,-72.0334,1622657815,100,42,27.75,2.62
Acacoyagua,MX,15.35,-92.65,1622657849,13,58,29.58,2.15
Biak,ID,-0.9131,122.8766,1622657849,99,80,24.15,2.32
Yabassi,CM,4.457,9.9682,1622657849,100,98,24.16,0.74
Soyo,AO,-6.1349,12.3689,1622657840,4,84,25.09,3.52
Lusambo,CD,-4.9667,23.45,1622657850,88,47,26.15,0.27
Conceição das Alagoas,BR,-19.9147,-48.3883,1622657826,35,31,29.88,2.3
Sri Aman,MY,1.2376,111.4621,1622657851,99,94,25.03,0.0
Zheleznodorozhnyy,RU,55.7503,38.0042,1622657800,77,68,17.29,3.64
Broome,US,42.2506,-75.833,1622657851,90,82,19.75,0.89
Diffa,NE,13.3154,12.6113,1622657818,98,18,36.98,2.93
Talnakh,RU,69.4865,88.3972,1622657847,97,91,1.2,3.75
Omsukchan,RU,62.5333,155.8,1622657852,74,70,4.45,1.61
Soria,ES,41.6667,-2.6667,1622657853,97,46,21.03,3.9
Yelizovo,RU,53.1873,158.3805,1622657853,54,93,0.08,2.0
Mossamedes,AO,-15.1961,12.1522,1622657854,75,86,21.47,3.76
Polunochnoye,RU,60.8697,60.4153,1622657854,8,53,5.78,2.02
Illapel,CL,-31.6308,-71.1653,1622657842,16,29,26.07,1.87
Fortuna,US,40.5982,-124.1573,1622657855,90,94,27.46,4.63
Souillac,MU,-20.5167,57.5167,1622657855,40,69,24.64,7.77
Necochea,AR,-38.5473,-58.7368,1622657804,83,63,11.62,9.08
Antsohihy,MG,-14.8796,47.9875,1622657856,82,77,22.74,1.86
Sumenep,ID,-7.0167,113.8667,1622657804,91,82,26.34,3.71
Farah,AF,32.5,62.5,1622657857,2,9,32.88,2.69
Hinganghāt,IN,20.5667,78.8333,1622657838,99,35,30.67,3.45
Turukhansk,RU,65.8167,87.9833,1622657858,98,98,2.39,4.79
Glendive,US,47.1053,-104.7125,1622657858,1,32,28.16,3.6
Aksarka,RU,66.5606,67.7975,1622657858,99,63,3.57,6.97
Mońki,PL,53.405,22.7979,1622657858,43,67,14.56,1.32
Terra Santa,BR,-2.1042,-56.4869,1622657859,27,49,32.4,2.01
Sabang,ID,5.8933,95.3214,1622657859,78,77,28.09,4.01
Bengkulu,ID,-3.8004,102.2655,1622657749,33,86,25.13,1.72
Faanui,PF,-16.4833,-151.75,1622657860,50,71,26.91,6.47
Moranbah,AU,-22.0016,148.0466,1622657860,94,84,16.4,2.96
Ust'-Karsk,RU,52.7011,118.8077,1622657860,60,97,7.19,1.66
Keningau,MY,5.3378,116.1602,1622657856,100,99,25.25,0.57
Härnösand,SE,62.6323,17.9379,1622657812,10,67,19.01,3.45
Susuman,RU,62.7833,148.1667,1622657862,87,65,5.64,1.76
Zduńska Wola,PL,51.5992,18.9397,1622657848,66,71,17.99,4.2
Mangochi,MW,-14.4782,35.2645,1622657849,61,78,21.36,1.86
Amboise,FR,47.4125,0.9827,1622657873,75,68,22.3,3.11
Darnah,LY,32.767,22.6367,1622657873,13,61,20.46,3.16
Moose Factory,CA,51.2585,-80.6094,1622657873,1,49,22.0,3.6
Benghazi,LY,32.1167,20.0667,1622657801,33,49,24.02,8.24
Linkuva,LT,56.0856,23.9725,1622657874,55,76,18.37,3.72
Old Town,CZ,50.087,14.4202,1622657874,0,47,21.5,3.6
Vilyuysk,RU,63.7553,121.6247,1622657874,56,78,12.06,2.38
Solnechnyy,RU,50.7214,136.6319,1622657875,18,92,8.32,1.59
Morro Bay,US,35.3658,-120.8499,1622657876,78,62,31.88,3.58
Hof,DE,50.3167,11.9167,1622657801,0,42,22.51,3.6
Dipalpur,PK,30.6709,73.6529,1622657860,0,46,30.13,2.15
Izumo,JP,35.3667,132.7667,1622657877,66,84,18.97,2.59
Laufen,DE,47.95,12.9333,1622657877,20,33,23.99,1.41
Along,IN,28.1667,94.7667,1622657834,80,97,22.76,0.71
Mardin,TR,37.3131,40.7436,1622657850,0,27,20.59,3.74
Banda Aceh,ID,5.5577,95.3222,1622657728,79,83,26.76,2.8
Almaznyy,RU,48.0448,40.045,1622657879,100,95,16.08,4.52
Sakakah,SA,29.9697,40.2064,1622657880,0,13,33.76,5.99
Meulaboh,ID,4.1363,96.1285,1622657880,100,88,25.81,1.27
Newport,GB,51.5877,-2.9984,1622657852,98,81,21.97,3.68
Nizwá,OM,22.9333,57.5333,1622657798,0,11,36.34,2.18
Matagami,CA,49.7502,-77.6328,1622657881,75,43,22.06,4.8
Tiarei,PF,-17.5333,-149.3333,1622657882,57,67,27.01,5.2
Elizabeth City,US,36.2946,-76.2511,1622657882,90,75,27.78,0.45
Egersund,NO,58.4513,5.9997,1622657883,71,73,18.9,4.71
Klaksvík,FO,62.2266,-6.589,1622657883,99,95,10.51,4.3
Chiredzi,ZW,-21.05,31.6667,1622657819,0,78,16.95,3.11
Rūdbār,AF,30.15,62.6,1622657884,0,8,36.79,3.95
Villamontes,BO,-21.25,-63.5,1622657884,4,36,29.18,4.67
Lākheri,IN,25.6667,76.1667,1622657587,61,33,31.72,1.84
Manali,IN,13.1667,80.2667,1622657822,15,90,30.6,4.73
Praia,CV,14.9215,-23.5087,1622657885,20,65,26.3,7.72
Lavrentiya,RU,65.5833,-171.0,1622657885,31,70,-1.07,5.96
Chuguyevka,RU,44.1653,133.8633,1622657886,100,91,13.33,2.03
Kutum,SD,14.2,24.6667,1622657886,83,15,32.25,1.86
Severobaykal'sk,RU,55.65,109.3167,1622657819,72,82,5.59,0.64
Senaki,GE,42.2704,42.0675,1622657826,57,96,17.05,3.67
Ancud,CL,-41.8697,-73.8203,1622657887,100,90,10.13,4.76
Coahuayana Viejo,MX,18.7333,-103.6833,1622657887,94,45,34.71,3.77
Bairiki Village,KI,1.3292,172.9752,1622657888,75,89,26.0,7.46
Takoradze,GH,4.8845,-1.7554,1622657888,62,77,27.69,4.12
Chipinge,ZW,-20.1883,32.6236,1622657888,60,73,14.37,2.08
Red Bluff,US,40.1785,-122.2358,1622657704,1,29,34.76,2.06
At-Bashi,KG,41.1702,75.8106,1622657889,86,71,13.7,0.54
Lagoa,PT,39.05,-27.9833,1622657889,86,59,15.28,2.35
Hornepayne,CA,49.2138,-84.7705,1622657890,65,30,24.4,5.61
Ghanzi,BW,-21.5667,21.7833,1622657890,0,23,11.49,3.34
Xinqing,CN,48.2333,129.5,1622657890,100,61,11.11,1.85
Orangeburg,US,33.4918,-80.8557,1622657891,75,68,29.34,1.34
Dunedin,NZ,-45.8742,170.5036,1622657621,1,89,8.78,0.45
Flinders,AU,-34.5833,150.8552,1622657901,97,83,12.43,0.45
Ewo,CG,-0.8725,14.8206,1622657902,78,76,25.35,1.67
Imeni Poliny Osipenko,RU,52.4201,136.4853,1622657902,73,91,9.6,1.36
Esim,GH,4.8699,-2.2405,1622657902,89,78,27.71,3.19
Hofn,IS,64.2539,-15.2082,1622657903,90,93,8.01,8.23
Wanaka,NZ,-44.7,169.15,1622657681,6,98,2.28,2.24
Ulaangom,MN,49.9811,92.0667,1622657903,23,25,14.19,1.67
Portland,US,45.5234,-122.6762,1622657697,1,54,28.78,0.45
Ascension,US,30.2169,-90.9001,1622657904,1,66,31.14,5.14
Xichang,CN,27.8964,102.2634,1622657905,81,90,20.5,1.06
Phang Nga,TH,8.4509,98.5298,1622657906,82,93,31.01,0.94
Sirajganj,BD,24.45,89.7167,1622657793,99,73,28.79,4.02
Turaif,SA,31.6725,38.6637,1622657906,0,32,27.14,6.17
Imbituba,BR,-28.24,-48.6703,1622657906,36,56,24.94,2.02
Poronaysk,RU,49.2167,143.1167,1622657804,14,96,5.56,1.41
Darhan,MN,49.4867,105.9228,1622657907,33,91,8.15,2.74
Zyryanka,RU,65.75,150.85,1622657907,79,45,12.35,1.77
Barra de Tecoanapa,MX,16.5167,-98.75,1622657908,100,58,31.09,3.33
Seddon,AU,-37.8068,144.8916,1622657908,90,87,13.71,2.57
Shimoda,JP,34.6667,138.95,1622657908,90,87,19.03,2.41
Jaqué,PA,7.5175,-78.1703,1622657909,99,79,27.8,1.36
Dubovka,RU,49.0583,44.829,1622657855,100,93,17.15,2.61
Chitral,PK,35.8462,71.7858,1622657909,9,40,22.39,2.85
Dakar,SN,14.6937,-17.4441,1622657807,0,73,27.49,5.14
Miyang,CN,24.4042,103.4428,1622657826,79,88,20.05,2.05
Świdnik,PL,51.219,22.6962,1622657813,0,63,16.62,2.06
Shatrovo,RU,56.5167,64.6333,1622657911,100,59,13.52,2.94
Laas,IT,46.6166,10.7002,1622657911,72,90,18.95,0.96
Caravelas,BR,-17.7125,-39.2481,1622657911,48,67,26.06,3.34
Álamos,MX,27.0167,-108.9333,1622657912,84,22,32.62,2.64
Cockburn Town,TC,21.4612,-71.1419,1622657790,100,76,26.73,8.58
Plettenberg Bay,ZA,-34.0527,23.3716,1622657912,98,88,13.73,4.23
Westport,US,41.1415,-73.3579,1622657792,1,60,27.47,0.45
Contramaestre,CU,20.2978,-76.2414,1622657913,93,63,29.71,1.78
Avarua,CK,-21.2078,-159.775,1622657801,64,69,25.03,5.66
Danville,US,36.586,-79.395,1622657913,75,57,28.12,2.57
Frankfort,ZA,-27.2667,28.4833,1622657914,30,53,7.8,1.87
Kahului,US,20.8947,-156.47,1622657914,20,60,28.01,7.2
Namatanai,PG,-3.6667,152.4333,1622657914,63,84,25.57,1.81
Tessalit,ML,20.1986,1.0114,1622657915,2,5,41.15,3.2
Maningrida,AU,-12.0667,134.2667,1622657915,76,86,21.49,3.46
Krasnokamensk,RU,50.0979,118.0369,1622657915,100,81,10.65,2.24
Nemuro,JP,43.3236,145.575,1622657801,100,100,9.16,2.07
Richards Bay,ZA,-28.783,32.0377,1622657814,1,79,16.12,2.27
Dauphin,CA,51.1494,-100.0502,1622657916,40,24,29.08,6.17
Winsum,NL,53.33,6.5208,1622657917,83,60,24.56,4.44
Ikwiriri,TZ,-7.9562,38.9716,1622657917,67,93,21.78,1.78
Port Lincoln,AU,-34.7333,135.8667,1622657917,8,80,15.0,6.11
Manavgat,TR,36.7867,31.4431,1622657918,0,69,25.46,0.63
Dickinson,US,29.4608,-95.0513,1622657814,40,63,32.36,0.45
Ürümqi,CN,43.801,87.6005,1622657842,0,18,27.53,1.53
Sørland,NO,67.667,12.6934,1622657919,13,75,14.92,2.75
Mwinilunga,ZM,-11.7358,24.4293,1622657919,61,48,16.62,1.25
Fomboni,KM,-12.28,43.7425,1622657930,80,66,26.37,1.61
Jaciara,BR,-15.9653,-54.9683,1622657845,60,29,33.43,1.71
Pringsewu,ID,-5.3582,104.9744,1622657930,94,91,23.56,1.07
San Ignacio,BZ,17.1561,-89.0714,1622657931,75,46,34.08,2.38
Hayvoron,UA,48.3396,29.8679,1622657795,100,94,11.9,7.16
Pedernales,DO,18.0384,-71.744,1622657931,94,62,29.82,0.84
Auki,SB,-8.7676,160.7034,1622657932,54,88,25.57,1.64
Mapiripán,CO,2.8892,-72.1256,1622657932,71,77,27.87,2.12
San Jose,US,37.3394,-121.895,1622657828,20,69,24.69,1.54
Camopi,GF,3.1655,-52.3158,1622657933,43,89,27.5,1.5
Lysyye Gory,RU,51.5506,44.8414,1622657933,90,69,15.03,7.63
Talara,PE,-4.5772,-81.2719,1622657850,20,65,25.42,5.66
Cândido Mendes,BR,-1.4467,-45.7167,1622657935,40,74,28.94,2.98
Karangampel,ID,-6.4622,108.4519,1622657796,69,83,27.15,2.45
Riyadh,SA,24.6877,46.7219,1622657835,0,8,36.08,2.57
Dmitriyevka,RU,54.75,55.3333,1622657936,100,95,14.71,6.81
Hobyo,SO,5.3505,48.5268,1622657937,100,78,26.29,9.9
Charlestown,AU,-32.95,151.6667,1622657937,99,84,13.65,1.34
Irbeyskoye,RU,55.6428,95.4522,1622657937,2,63,13.57,1.12
Oranjestad,AW,12.524,-70.027,1622657791,20,66,29.97,11.83
Ostrovnoy,RU,68.0531,39.5131,1622657938,92,87,7.48,2.52
La Ronge,CA,55.1001,-105.2842,1622657939,75,30,28.14,3.09
Williston,US,48.147,-103.618,1622657939,85,30,29.21,1.34
Baghdad,IQ,33.3406,44.4009,1622657940,0,18,33.95,8.02
Makakilo City,US,21.3469,-158.0858,1622657940,1,63,26.18,2.57
Iberia,US,29.9502,-91.7507,1622657940,75,70,31.1,3.57
Carutapera,BR,-1.195,-46.02,1622657941,41,67,29.51,3.79
Labytnangi,RU,66.6572,66.4183,1622657941,98,74,2.81,5.05
Crotone,IT,39.0851,17.1178,1622657790,0,55,19.97,3.88
Vallenar,CL,-28.5708,-70.7581,1622657806,0,18,28.96,2.52
Sennar,SD,13.5691,33.5672,1622657942,99,28,36.11,6.12
Hualmay,PE,-11.0964,-77.6139,1622657943,99,70,20.85,3.64
Kendal,GB,54.3268,-2.7476,1622657822,85,77,22.73,6.13
Yulara,AU,-25.2406,130.9889,1622657943,82,76,9.91,3.09
Catalina,US,32.5056,-110.9211,1622657944,76,15,34.54,0.89
Ambilobe,MG,-13.2,49.05,1622657944,39,76,22.21,1.79
Nhulunbuy,AU,-12.2333,136.7667,1622657944,8,94,21.34,2.57
